{"last_updated": 1625780758, "ttl": 10, "data": {"stations": [{"station_id": "2268", "name": "Picardy Place", "address": "Picady Place", "lat": 55.95653524179326, "lon": -3.1862476120746805, "capacity": 31}, {"station_id": "2265", "name": "Musselburgh Brunton Hall", "address": "Bridge St", "lat": 55.94396074176487, "lon": -3.058306836702485, "capacity": 29}, {"station_id": "2263", "name": "Musselburgh Lidl", "address": "Musselborough North High Street opposite Harbour Road", "lat": 55.94388031687606, "lon": -3.0667539162178628, "capacity": 34}, {"station_id": "2259", "name": "Leith Walk North", "address": "165 Leith Walk", "lat": 55.96791807044289, "lon": -3.1735862970647304, "capacity": 32}, {"station_id": "1824", "name": "Duke Street", "address": "Duke St, Edinburgh EH6 8HU", "lat": 55.96901164826488, "lon": -3.16739470303429, "capacity": 43}, {"station_id": "1823", "name": "Boroughmuir", "address": "Bainfield Dr, Edinburgh EH11 1JL", "lat": 55.94007146917616, "lon": -3.215335840688084, "capacity": 25}, {"station_id": "1822", "name": "Edinburgh Park Station", "address": "Hermiston Gait, Edinburgh, EH11 4DF", "lat": 55.927382676939004, "lon": -3.307442444578868, "capacity": 23}, {"station_id": "1821", "name": "Drumsheugh Place", "address": "Drumsheugh Pl, Edinburgh EH3 7PT", "lat": 55.95159412232485, "lon": -3.2123542850940225, "capacity": 27}, {"station_id": "1820", "name": "Heriot Watt - Student Accommodation", "address": "Heriot Watt University, Edinburgh, Currie EH14 4AB", "lat": 55.90841344459825, "lon": -3.3287835258168874, "capacity": 23}, {"station_id": "1819", "name": "Heriot Watt - Edinburgh Business School", "address": "Heriot-Watt University Gait 11, The Avenue, Currie EH14 4AS", "lat": 55.9088228790413, "lon": -3.320113285176247, "capacity": 20}, {"station_id": "1818", "name": "Dynamic Earth", "address": "Holyrood Rd, Edinburgh EH8 8AS", "lat": 55.951089465236365, "lon": -3.17572460948655, "capacity": 35}, {"station_id": "1815", "name": "Sighthill - Edinburgh College", "address": "Bankhead Ave, Edinburgh EH11 4DE", "lat": 55.926684277487574, "lon": -3.2894811171216665, "capacity": 17}, {"station_id": "1814", "name": "Abbeyhill", "address": "Abbeyhill, Edinburgh, EH8 8EB", "lat": 55.95524788917224, "lon": -3.1722162800950704, "capacity": 26}, {"station_id": "1813", "name": "Milton Road - Edinburgh College", "address": "24 Milton Rd E, Edinburgh, EH15 2PP", "lat": 55.94406627599551, "lon": -3.0985614794416128, "capacity": 24}, {"station_id": "1809", "name": "Royal Edinburgh Hospital", "address": "Royal Edinburgh Hospital, Morningside Pl, Edinburgh EH10 5HF", "lat": 55.92781815597736, "lon": -3.2133077222032247, "capacity": 23}, {"station_id": "1807", "name": "Gamekeeper's Road", "address": "Edinburgh, EH4 6GX", "lat": 55.969442746098885, "lon": -3.3072587984723745, "capacity": 20}, {"station_id": "1798", "name": "Chambers Street", "address": "Chambers St, Edinburgh EH1 1JF", "lat": 55.94760044619224, "lon": -3.1889197367352153, "capacity": 25}, {"station_id": "1770", "name": "Ellersly Road", "address": "50 Corstorphine Rd, Edinburgh EH12 6JQ", "lat": 55.945045875212095, "lon": -3.250881447188249, "capacity": 23}, {"station_id": "1769", "name": "Brunswick Place", "address": "Brunswick Place, Edinburgh EH7 5HU", "lat": 55.96085174106396, "lon": -3.180985762469163, "capacity": 31}, {"station_id": "1768", "name": "Thirlestane Road", "address": "Thirlestane Road, Edinburgh, EH9 1AY", "lat": 55.935323709648124, "lon": -3.198763443819871, "capacity": 20}, {"station_id": "1767", "name": "Bruntsfield Links", "address": "Bruntsfield Terrace, Edinburgh, EH10 4EX", "lat": 55.937123239991095, "lon": -3.206431879393449, "capacity": 34}, {"station_id": "1765", "name": "Haymarket Terrace", "address": "90 Haymarket Terrace, Edinburgh EH12 5LQ", "lat": 55.946063966641006, "lon": -3.2230240243595745, "capacity": 23}, {"station_id": "1763", "name": "Comely Bank Road", "address": "Comely Bank Road, Edinburgh EH4 1DW", "lat": 55.95941012836135, "lon": -3.2156613606136943, "capacity": 16}, {"station_id": "1758", "name": "Queen Margaret University", "address": "Queen Margaret University Way, Musselburgh EH21 6UU", "lat": 55.931980482636575, "lon": -3.0731046336811687, "capacity": 17}, {"station_id": "1757", "name": "Meggetland", "address": "4 Meggetland Wynd, Edinburgh EH14 1XN", "lat": 55.92758664038103, "lon": -3.2336710530441906, "capacity": 21}, {"station_id": "1756", "name": "Western General Hospital", "address": "Porterfield Road, Edinburgh, EH4 2PD", "lat": 55.96283984266853, "lon": -3.234135938375289, "capacity": 20}, {"station_id": "1754", "name": "Murrayfield Tram", "address": "Roseburn St, Edinburgh EH12 5PE", "lat": 55.94191081116495, "lon": -3.2378003138226177, "capacity": 26}, {"station_id": "1753", "name": "Waitrose Comely Bank", "address": "38 Comely Bank Rd, Edinburgh EH4 1AW", "lat": 55.959536249717715, "lon": -3.223434402338853, "capacity": 17}, {"station_id": "1749", "name": "Dean Street", "address": "Dean Park St, Edinburgh EH4 1JS", "lat": 55.957278012740645, "lon": -3.2142853873890544, "capacity": 20}, {"station_id": "1748", "name": "Colinton Road", "address": "Colinton Rd, Edinburgh EH10 5DS", "lat": 55.933416359161036, "lon": -3.21239711224257, "capacity": 18}, {"station_id": "1745", "name": "Scotland Street", "address": "Royal Cres, Edinburgh EH3 6PZ", "lat": 55.96037972054591, "lon": -3.1954703369027584, "capacity": 25}, {"station_id": "1744", "name": "Morningside Road", "address": "Morningside Rd, Edinburgh EH10 4QQ", "lat": 55.927985349796536, "lon": -3.209749771944871, "capacity": 20}, {"station_id": "1739", "name": "Edinburgh Royal Infirmary", "address": "Little France, Edinburgh EH16 4SA", "lat": 55.92135417116336, "lon": -3.1369712992544976, "capacity": 23}, {"station_id": "1738", "name": "Wester Coates Terrace", "address": "Edinburgh EH12 5JE", "lat": 55.94564841884953, "lon": -3.2318471509140636, "capacity": 21}, {"station_id": "1737", "name": "Inverleith Row", "address": "Inverleith Terrace, Edinburgh EH3 5NS", "lat": 55.964117879889585, "lon": -3.2020947474163677, "capacity": 25}, {"station_id": "1731", "name": "Pleasance Courtyard", "address": "Pleasance, Edinburgh EH8 9TJ", "lat": 55.947490592969416, "lon": -3.181112126101965, "capacity": 20}, {"station_id": "1730", "name": "East London Street", "address": "East London St, Edinburgh EH7 4BW", "lat": 55.95995414501485, "lon": -3.1871977585476543, "capacity": 25}, {"station_id": "1729", "name": "McDonald Road", "address": "McDonald Rd, Edinburgh EH7 4NS", "lat": 55.9640310527501, "lon": -3.1851753729504253, "capacity": 23}, {"station_id": "1728", "name": "Portobello - Kings Road", "address": "Kings Road, Portobello, Edinburgh, EH15 1DX", "lat": 55.957915406923476, "lon": -3.1183320420902874, "capacity": 69}, {"station_id": "1727", "name": "Causewayside", "address": "Causewayside, Edinburgh, EH9 1PR", "lat": 55.93650603148236, "lon": -3.1801663476151134, "capacity": 21}, {"station_id": "1726", "name": "Simon Square", "address": "Simon Square, Edinburgh, EH8 9HP", "lat": 55.94485886752089, "lon": -3.182589723460069, "capacity": 22}, {"station_id": "1725", "name": "Edinburgh Zoo", "address": "Corstorphine Road, Edinburgh, EH12 6TS", "lat": 55.94211534619251, "lon": -3.2692867654484417, "capacity": 20}, {"station_id": "1722", "name": "Cramond Foreshore", "address": "Cramond Harbour, Edinburgh, EH4 6NU", "lat": 55.980030767403164, "lon": -3.300641788832536, "capacity": 38}, {"station_id": "1721", "name": "Tollcross", "address": "High Riggs, Edinburgh, EH3 9RP", "lat": 55.944248052468346, "lon": -3.2031045991104747, "capacity": 25}, {"station_id": "1720", "name": "Dundas Street", "address": "Airlie Place, Edinburgh, EH3 5DT", "lat": 55.9607624081837, "lon": -3.201278014771333, "capacity": 20}, {"station_id": "1102", "name": "Haymarket Station", "address": "Haymarket Terrace, Edinburgh, EH12 5EY", "lat": 55.94556945067266, "lon": -3.21818468327956, "capacity": 20}, {"station_id": "1098", "name": "Marchmont Crescent", "address": "Marchmont Crescent, Edinburgh, EH9 1HD", "lat": 55.936431918148195, "lon": -3.194150044314256, "capacity": 25}, {"station_id": "1097", "name": "Gladstone Terrace", "address": "Gladstone Terrace, Edinburgh, EH9 1LU", "lat": 55.93796327344498, "lon": -3.185021145932069, "capacity": 14}, {"station_id": "1096", "name": "West Crosscauseway", "address": "West Crosscauseway, Edinburgh, EH8 9AT", "lat": 55.9438359841253, "lon": -3.1849514084976818, "capacity": 31}, {"station_id": "1093", "name": "Belford Road", "address": "75 Belford Rd, Edinburgh EH4 3DR", "lat": 55.95197357717703, "lon": -3.226124804664096, "capacity": 19}, {"station_id": "1092", "name": "Dalry Road Lidl", "address": "Dalry Rd, Edinburgh EH11 2EF", "lat": 55.94179129688128, "lon": -3.2224153095964994, "capacity": 17}, {"station_id": "1091", "name": "Holyrood Road", "address": "Holyrood Rd, Edinburgh EH8 8AQ", "lat": 55.94955950619123, "lon": -3.180413257527789, "capacity": 32}, {"station_id": "1090", "name": "Hillside Crescent", "address": "Opposite 34 Hillside Cres Edinburgh EH7 5EF", "lat": 55.95787194536338, "lon": -3.1758883709196652, "capacity": 22}, {"station_id": "1052", "name": "Surgeons Hall", "address": "Nicolson St, Edinburgh EH8 9DW", "lat": 55.94664279961712, "lon": -3.1854745859388913, "capacity": 23}, {"station_id": "1051", "name": "Warrender Park Road", "address": "Warrender Park Rd, Edinburgh EH9 1ES", "lat": 55.93836921723555, "lon": -3.1980326885466184, "capacity": 15}, {"station_id": "1050", "name": "EICC", "address": "150 Morrison St, Edinburgh EH3 8EE", "lat": 55.94607055533778, "lon": -3.2103963310007657, "capacity": 25}, {"station_id": "1039", "name": "Lothian Road", "address": "Lothian Road, Edinburgh, EH1 2EA", "lat": 55.947409199207115, "lon": -3.2057654971365537, "capacity": 46}, {"station_id": "1038", "name": "South Trinity Road", "address": "South Trinity Road, Edinburgh, EH5 3NR", "lat": 55.97132539148155, "lon": -3.207963567424258, "capacity": 31}, {"station_id": "1028", "name": "Hunter Square", "address": "122 High Street, Edinburgh, EH1 1SG", "lat": 55.949797565633276, "lon": -3.1877950320129003, "capacity": 23}, {"station_id": "1025", "name": "Dundee Terrace", "address": "3 Dundee Terrace, edinburgh, EH11BY", "lat": 55.93970989541296, "lon": -3.2205889336679547, "capacity": 25}, {"station_id": "1024", "name": "Meadow Place", "address": "Meadow Place, edinburgh, EH91JZ", "lat": 55.940237631689435, "lon": -3.194640214184801, "capacity": 29}, {"station_id": "1019", "name": "Grassmarket", "address": "outside 86-88 Grassmarket, Edinburgh, EH1 2JR", "lat": 55.947097278583385, "lon": -3.1972457326126005, "capacity": 14}, {"station_id": "1017", "name": "Crichton Street", "address": "Crichton Street, Edinburgh, EH8 9LE", "lat": 55.94478427951007, "lon": -3.186906245433761, "capacity": 33}, {"station_id": "358", "name": "Leith Walk", "address": "Leith Walk", "lat": 55.96517649040763, "lon": -3.1761801702076298, "capacity": 22}, {"station_id": "349", "name": "Orchard Brae House", "address": "30 Queensferry Road", "lat": 55.95508276879095, "lon": -3.2236342639564555, "capacity": 17}, {"station_id": "296", "name": "Castle Terrace", "address": "Lady Lawson Street", "lat": 55.94676648672239, "lon": -3.2020378290551434, "capacity": 22}, {"station_id": "289", "name": "Castle Street", "address": "Castle Street", "lat": 55.951500737349754, "lon": -3.2031839065252825, "capacity": 38}, {"station_id": "265", "name": "Meadows East", "address": "Sciennes, Edinburgh EH9 1NH", "lat": 55.939809466328285, "lon": -3.182738850746432, "capacity": 39}, {"station_id": "264", "name": "Pollock Halls", "address": "18 Holyrood Park Road", "lat": 55.94008064125911, "lon": -3.171746866852459, "capacity": 42}, {"station_id": "262", "name": "Canonmills", "address": "Broughton Road", "lat": 55.96280408759764, "lon": -3.196283585062929, "capacity": 28}, {"station_id": "260", "name": "Lauriston Place", "address": "Lauriston Place", "lat": 55.944771652335476, "lon": -3.1972658564195626, "capacity": 24}, {"station_id": "259", "name": "St Andrew Square", "address": "St Andrew Square", "lat": 55.95490573198223, "lon": -3.192443756949956, "capacity": 22}, {"station_id": "258", "name": "Stockbridge", "address": "1, Dean Bank Lane", "lat": 55.95856558589723, "lon": -3.2080701822277433, "capacity": 19}, {"station_id": "256", "name": "St Andrews House", "address": "Regent Road", "lat": 55.95316433242384, "lon": -3.181682340931843, "capacity": 18}, {"station_id": "254", "name": "Kings Building 3", "address": "James Dewar Road", "lat": 55.923478807846635, "lon": -3.1753845849070785, "capacity": 26}, {"station_id": "253", "name": "Kings Building 2", "address": "Entrance to Sanderson Building", "lat": 55.92320215516664, "lon": -3.1716462453634904, "capacity": 20}, {"station_id": "252", "name": "Kings Buildings 1", "address": "James Hutton Road", "lat": 55.92418540667696, "lon": -3.173830830087809, "capacity": 12}, {"station_id": "251", "name": "Waverley Station", "address": "Waverley Station Concourse", "lat": 55.952641035774384, "lon": -3.187526919462357, "capacity": 19}, {"station_id": "250", "name": "Victoria Quay", "address": "Entrance to Scottish Government Office", "lat": 55.977617152546344, "lon": -3.1741263194576277, "capacity": 44}, {"station_id": "249", "name": "Fountainbridge", "address": "116 Fountainbridge", "lat": 55.94335692764551, "lon": -3.2092475016246453, "capacity": 28}, {"station_id": "248", "name": "Bristo Square", "address": "Bristo Square, Potterrow", "lat": 55.94583371599285, "lon": -3.189053072075467, "capacity": 62}, {"station_id": "247", "name": "Charlotte Square", "address": "Charlotte Square", "lat": 55.95233546161639, "lon": -3.2071011721072864, "capacity": 39}, {"station_id": "246", "name": "Royal Commonwealth Pool", "address": "Dalkeith Road, Edinburgh EH16 5BB", "lat": 55.939000247888764, "lon": -3.173923554315593, "capacity": 20}, {"station_id": "225", "name": "Waverley Court", "address": "Waverley Court, East Market Street", "lat": 55.95173449698344, "lon": -3.1841785354060903, "capacity": 13}, {"station_id": "189", "name": "City Chambers", "address": "High Street", "lat": 55.95010933017899, "lon": -3.190257770093808, "capacity": 17}, {"station_id": "183", "name": "Waverley Bridge", "address": "Waverley Bridge", "lat": 55.951980756193535, "lon": -3.1918903325579038, "capacity": 31}]}}